{"type": "FeatureCollection", "features": [{"type": "Feature", "geometry": {"type": "Point", "coordinates": [26.45011136252573, 60.49289163725129]}, "properties": {"name": "AHVENKOSKI 110 kV", "voltage_kv": "110", "consumption_mw": 0, "generation_1": 200, "generation_2": 200, "generation_3": 200}}, {"type": "Feature", "geometry": {"type": "Point", "coordinates": [24.166489547044485, 63.03238483347027]}, "properties": {"name": "ALAJÄRVI 110 kV", "voltage_kv": "110", "consumption_mw": 500, "generation_1": 60, "generation_2": 60, "generation_3": 60}}, {"type": "Feature", "geometry": {"type": "Point", "coordinates": [24.166489547044485, 63.03238483347027]}, "properties": {"name": "ALAJÄRVI 400 kV", "voltage_kv": "400", "consumption_mw": 500, "generation_1": 0, "generation_2": 0, "generation_3": 0}}, {"type": "Feature", "geometry": {"type": "Point", "coordinates": [27.521436495491503, 63.18803596990296]}, "properties": {"name": "ALAPITKÄ 110 kV", "voltage_kv": "110", "consumption_mw": 200, "generation_1": 180, "generation_2": 180, "generation_3": 180}}, {"type": "Feature", "geometry": {"type": "Point", "coordinates": [27.521436495491503, 63.18803596990296]}, "properties": {"name": "ALAPITKÄ 400 kV", "voltage_kv": "400", "consumption_mw": 500, "generation_1": 380, "generation_2": 380, "generation_3": 380}}, {"type": "Feature", "geometry": {"type": "Point", "coordinates": [25.367488751702034, 60.377611692949294]}, "properties": {"name": "ANTTILA 110 kV", "voltage_kv": "110", "consumption_mw": 0, "generation_1": 500, "generation_2": 500, "generation_3": 500}}, {"type": "Feature", "geometry": {"type": "Point", "coordinates": [25.367488751702034, 60.377611692949294]}, "properties": {"name": "ANTTILA 400 kV", "voltage_kv": "400", "consumption_mw": 0, "generation_1": 500, "generation_2": 500, "generation_3": 500}}, {"type": "Feature", "geometry": {"type": "Point", "coordinates": [21.67059705302347, 62.1179412339629]}, "properties": {"name": "ARKKUKALLIO 110 kV", "voltage_kv": "110", "consumption_mw": 500, "generation_1": 0, "generation_2": 240, "generation_3": 240}}, {"type": "Feature", "geometry": {"type": "Point", "coordinates": [21.67059705302347, 62.1179412339629]}, "properties": {"name": "ARKKUKALLIO 400 kV", "voltage_kv": "400", "consumption_mw": 500, "generation_1": 0, "generation_2": 440, "generation_3": 440}}, {"type": "Feature", "geometry": {"type": "Point", "coordinates": [24.550724040553686, 60.20469094920221]}, "properties": {"name": "ESPOO 110 kV", "voltage_kv": "110", "consumption_mw": 0, "generation_1": 500, "generation_2": 500, "generation_3": 500}}, {"type": "Feature", "geometry": {"type": "Point", "coordinates": [24.550724040553686, 60.20469094920221]}, "properties": {"name": "ESPOO 400 kV", "voltage_kv": "400", "consumption_mw": 0, "generation_1": 500, "generation_2": 500, "generation_3": 500}}, {"type": "Feature", "geometry": {"type": "Point", "coordinates": [23.573395860059783, 60.802154030556416]}, "properties": {"name": "FORSSA 110 kV", "voltage_kv": "110", "consumption_mw": 0, "generation_1": 260, "generation_2": 260, "generation_3": 260}}, {"type": "Feature", "geometry": {"type": "Point", "coordinates": [23.573395860059783, 60.802154030556416]}, "properties": {"name": "FORSSA 400 kV", "voltage_kv": "400", "consumption_mw": 0, "generation_1": 460, "generation_2": 460, "generation_3": 460}}, {"type": "Feature", "geometry": {"type": "Point", "coordinates": [24.510715323559815, 63.521065231420245]}, "properties": {"name": "HALSUA 400 kV", "voltage_kv": "400", "consumption_mw": 0, "generation_1": 0, "generation_2": 710, "generation_3": 710}}, {"type": "Feature", "geometry": {"type": "Point", "coordinates": [29.362954900559924, 62.83655375509614]}, "properties": {"name": "HAPPOLA 110 kV", "voltage_kv": "110", "consumption_mw": 50, "generation_1": 100, "generation_2": 100, "generation_3": 100}}, {"type": "Feature", "geometry": {"type": "Point", "coordinates": [26.03244602183359, 61.17259811185543]}, "properties": {"name": "HEINOLA 110 kV", "voltage_kv": "110", "consumption_mw": 50, "generation_1": 80, "generation_2": 80, "generation_3": 80}}, {"type": "Feature", "geometry": {"type": "Point", "coordinates": [24.693310529015413, 60.239357404439886]}, "properties": {"name": "HEPOKORPI 110 kV", "voltage_kv": "110", "consumption_mw": 0, "generation_1": 500, "generation_2": 500, "generation_3": 500}}, {"type": "Feature", "geometry": {"type": "Point", "coordinates": [25.665753716713905, 65.51421332303863]}, "properties": {"name": "HERVA 400 kV", "voltage_kv": "400", "consumption_mw": 500, "generation_1": 700, "generation_2": 1300, "generation_3": 1300}}, {"type": "Feature", "geometry": {"type": "Point", "coordinates": [24.91914705964722, 60.74844141732669]}, "properties": {"name": "HIKIÄ 110 kV", "voltage_kv": "110", "consumption_mw": 0, "generation_1": 480, "generation_2": 480, "generation_3": 480}}, {"type": "Feature", "geometry": {"type": "Point", "coordinates": [24.91914705964722, 60.74844141732669]}, "properties": {"name": "HIKIÄ 400 kV", "voltage_kv": "400", "consumption_mw": 0, "generation_1": 480, "generation_2": 480, "generation_3": 480}}, {"type": "Feature", "geometry": {"type": "Point", "coordinates": [23.081039807818733, 63.80054235213787]}, "properties": {"name": "HIRVISUO 110 kV", "voltage_kv": "110", "consumption_mw": 300, "generation_1": 0, "generation_2": 400, "generation_3": 400}}, {"type": "Feature", "geometry": {"type": "Point", "coordinates": [23.081039807818733, 63.80054235213787]}, "properties": {"name": "HIRVISUO 400 kV", "voltage_kv": "400", "consumption_mw": 500, "generation_1": 0, "generation_2": 1000, "generation_3": 1000}}, {"type": "Feature", "geometry": {"type": "Point", "coordinates": [22.193852249685445, 62.07168168014906]}, "properties": {"name": "HONKAJOKI 400 kV", "voltage_kv": "400", "consumption_mw": 0, "generation_1": 0, "generation_2": 570, "generation_3": 570}}, {"type": "Feature", "geometry": {"type": "Point", "coordinates": [29.232118881964155, 62.63308465003046]}, "properties": {"name": "HOVINPAIKKA 110 kV", "voltage_kv": "110", "consumption_mw": 50, "generation_1": 100, "generation_2": 100, "generation_3": 100}}, {"type": "Feature", "geometry": {"type": "Point", "coordinates": [22.585949322315308, 61.15109330617043]}, "properties": {"name": "HUITTINEN 400 kV", "voltage_kv": "400", "consumption_mw": 500, "generation_1": 500, "generation_2": 500, "generation_3": 500}}, {"type": "Feature", "geometry": {"type": "Point", "coordinates": [27.670557853861816, 62.212883636861925]}, "properties": {"name": "HUUTOKOSKI 110 kV", "voltage_kv": "110", "consumption_mw": 200, "generation_1": 500, "generation_2": 500, "generation_3": 500}}, {"type": "Feature", "geometry": {"type": "Point", "coordinates": [27.670557853861816, 62.212883636861925]}, "properties": {"name": "HUUTOKOSKI 400 kV", "voltage_kv": "400", "consumption_mw": 500, "generation_1": 500, "generation_2": 500, "generation_3": 500}}, {"type": "Feature", "geometry": {"type": "Point", "coordinates": [27.233712869610464, 63.59428723711487]}, "properties": {"name": "IISALMI 110 kV", "voltage_kv": "110", "consumption_mw": 100, "generation_1": 50, "generation_2": 250, "generation_3": 250}}, {"type": "Feature", "geometry": {"type": "Point", "coordinates": [27.635410677290757, 62.889145874077386]}, "properties": {"name": "ILOHARJU 110 kV", "voltage_kv": "110", "consumption_mw": 100, "generation_1": 100, "generation_2": 100, "generation_3": 100}}, {"type": "Feature", "geometry": {"type": "Point", "coordinates": [28.775295742366072, 61.16515850733317]}, "properties": {"name": "IMATRA 110 kV", "voltage_kv": "110", "consumption_mw": 100, "generation_1": 100, "generation_2": 100, "generation_3": 100}}, {"type": "Feature", "geometry": {"type": "Point", "coordinates": [23.908489179289223, 60.021731317366275]}, "properties": {"name": "INKOO 110 kV", "voltage_kv": "110", "consumption_mw": 0, "generation_1": 500, "generation_2": 500, "generation_3": 500}}, {"type": "Feature", "geometry": {"type": "Point", "coordinates": [23.908489179289223, 60.021731317366275]}, "properties": {"name": "INKOO 400 kV", "voltage_kv": "400", "consumption_mw": 0, "generation_1": 500, "generation_2": 500, "generation_3": 500}}, {"type": "Feature", "geometry": {"type": "Point", "coordinates": [25.694353328768734, 65.2667818520094]}, "properties": {"name": "ISOKANGAS 110 kV", "voltage_kv": "110", "consumption_mw": 200, "generation_1": 0, "generation_2": 0, "generation_3": 290}}, {"type": "Feature", "geometry": {"type": "Point", "coordinates": [25.694353328768734, 65.2667818520094]}, "properties": {"name": "ISOKANGAS 400 kV", "voltage_kv": "400", "consumption_mw": 500, "generation_1": 560, "generation_2": 760, "generation_3": 760}}, {"type": "Feature", "geometry": {"type": "Point", "coordinates": [24.918655698331367, 67.52783372302994]}, "properties": {"name": "ISONIEMI 110 kV", "voltage_kv": "110", "consumption_mw": 100, "generation_1": 200, "generation_2": 200, "generation_3": 200}}, {"type": "Feature", "geometry": {"type": "Point", "coordinates": [24.918655698331367, 67.52783372302994]}, "properties": {"name": "ISONIEMI 220 kV", "voltage_kv": "220", "consumption_mw": 200, "generation_1": 200, "generation_2": 200, "generation_3": 200}}, {"type": "Feature", "geometry": {"type": "Point", "coordinates": [27.58264310879328, 68.6558490602181]}, "properties": {"name": "IVALO 110 kV", "voltage_kv": "110", "consumption_mw": 30, "generation_1": 0, "generation_2": 50, "generation_3": 50}}, {"type": "Feature", "geometry": {"type": "Point", "coordinates": [27.58264310879328, 68.6558490602181]}, "properties": {"name": "IVALO 220 kV", "voltage_kv": "220", "consumption_mw": 50, "generation_1": 50, "generation_2": 50, "generation_3": 50}}, {"type": "Feature", "geometry": {"type": "Point", "coordinates": [22.93285923724473, 62.556484032738]}, "properties": {"name": "JULMALA 110 kV", "voltage_kv": "110", "consumption_mw": 0, "generation_1": 0, "generation_2": 0, "generation_3": 0}}, {"type": "Feature", "geometry": {"type": "Point", "coordinates": [24.24033477790564, 64.28879328785409]}, "properties": {"name": "JYLKKÄ 110 kV", "voltage_kv": "110", "consumption_mw": 500, "generation_1": 0, "generation_2": 10, "generation_3": 10}}, {"type": "Feature", "geometry": {"type": "Point", "coordinates": [24.24033477790564, 64.28879328785409]}, "properties": {"name": "JYLKKÄ 400 kV", "voltage_kv": "400", "consumption_mw": 500, "generation_1": 0, "generation_2": 10, "generation_3": 10}}, {"type": "Feature", "geometry": {"type": "Point", "coordinates": [30.12970728557172, 62.7691313975845]}, "properties": {"name": "KALTIMO 110 kV", "voltage_kv": "110", "consumption_mw": 100, "generation_1": 150, "generation_2": 150, "generation_3": 150}}, {"type": "Feature", "geometry": {"type": "Point", "coordinates": [23.977068078403377, 61.496626670705915]}, "properties": {"name": "KANGASALA 110 kV", "voltage_kv": "110", "consumption_mw": 0, "generation_1": 500, "generation_2": 500, "generation_3": 500}}, {"type": "Feature", "geometry": {"type": "Point", "coordinates": [23.977068078403377, 61.496626670705915]}, "properties": {"name": "KANGASALA 400 kV", "voltage_kv": "400", "consumption_mw": 500, "generation_1": 500, "generation_2": 500, "generation_3": 500}}, {"type": "Feature", "geometry": {"type": "Point", "coordinates": [22.366969381244246, 61.81882653786725]}, "properties": {"name": "KANKAANPÄÄ 110 kV", "voltage_kv": "110", "consumption_mw": 0, "generation_1": 0, "generation_2": 90, "generation_3": 90}}, {"type": "Feature", "geometry": {"type": "Point", "coordinates": [23.63837135845006, 60.048021791963016]}, "properties": {"name": "KARJAA 110 kV", "voltage_kv": "110", "consumption_mw": 0, "generation_1": 270, "generation_2": 270, "generation_3": 270}}, {"type": "Feature", "geometry": {"type": "Point", "coordinates": [26.56453418483166, 62.250018076906706]}, "properties": {"name": "KAUPPILA 110 kV", "voltage_kv": "110", "consumption_mw": 0, "generation_1": 270, "generation_2": 270, "generation_3": 270}}, {"type": "Feature", "geometry": {"type": "Point", "coordinates": [27.287347590387157, 66.74992926151411]}, "properties": {"name": "KELLARIJÄNKÄ 110 kV", "voltage_kv": "110", "consumption_mw": 160, "generation_1": 0, "generation_2": 170, "generation_3": 170}}, {"type": "Feature", "geometry": {"type": "Point", "coordinates": [27.287347590387157, 66.74992926151411]}, "properties": {"name": "KELLARIJÄNKÄ 220 kV", "voltage_kv": "220", "consumption_mw": 320, "generation_1": 0, "generation_2": 70, "generation_3": 70}}, {"type": "Feature", "geometry": {"type": "Point", "coordinates": [24.52602788996259, 65.88834801491069]}, "properties": {"name": "KEMINMAA 110 kV", "voltage_kv": "110", "consumption_mw": 300, "generation_1": 130, "generation_2": 130, "generation_3": 130}}, {"type": "Feature", "geometry": {"type": "Point", "coordinates": [24.52602788996259, 65.88834801491069]}, "properties": {"name": "KEMINMAA 400 kV", "voltage_kv": "400", "consumption_mw": 500, "generation_1": 910, "generation_2": 1340, "generation_3": 1340}}, {"type": "Feature", "geometry": {"type": "Point", "coordinates": [22.651947663217328, 60.13671258711598]}, "properties": {"name": "KEMIÖ 110 kV", "voltage_kv": "110", "consumption_mw": 0, "generation_1": 120, "generation_2": 120, "generation_3": 120}}, {"type": "Feature", "geometry": {"type": "Point", "coordinates": [29.922078668002854, 62.09366964249152]}, "properties": {"name": "KIIKANLAHTI 110 kV", "voltage_kv": "110", "consumption_mw": 50, "generation_1": 100, "generation_2": 100, "generation_3": 100}}, {"type": "Feature", "geometry": {"type": "Point", "coordinates": [25.72282058008021, 62.57211899944047]}, "properties": {"name": "KOIVISTO 110 kV", "voltage_kv": "110", "consumption_mw": 100, "generation_1": 100, "generation_2": 100, "generation_3": 100}}, {"type": "Feature", "geometry": {"type": "Point", "coordinates": [27.318906914034226, 67.22468505283508]}, "properties": {"name": "KOKKOSNIVA 220 kV", "voltage_kv": "220", "consumption_mw": 0, "generation_1": 60, "generation_2": 230, "generation_3": 230}}, {"type": "Feature", "geometry": {"type": "Point", "coordinates": [29.3384296267289, 61.43539130358027]}, "properties": {"name": "KONKAPELTO 110 kV", "voltage_kv": "110", "consumption_mw": 20, "generation_1": 100, "generation_2": 100, "generation_3": 100}}, {"type": "Feature", "geometry": {"type": "Point", "coordinates": [29.758431681398584, 62.6734684049317]}, "properties": {"name": "KONTIOLAHTI 110 kV", "voltage_kv": "110", "consumption_mw": 100, "generation_1": 200, "generation_2": 200, "generation_3": 200}}, {"type": "Feature", "geometry": {"type": "Point", "coordinates": [24.275408007728466, 60.27411893742711]}, "properties": {"name": "KOPULA 110 kV", "voltage_kv": "110", "consumption_mw": 0, "generation_1": 250, "generation_2": 250, "generation_3": 250}}, {"type": "Feature", "geometry": {"type": "Point", "coordinates": [24.275408007728466, 60.27411893742711]}, "properties": {"name": "KOPULA 400 kV", "voltage_kv": "400", "consumption_mw": 0, "generation_1": 500, "generation_2": 500, "generation_3": 500}}, {"type": "Feature", "geometry": {"type": "Point", "coordinates": [26.595428514366972, 60.83831245663099]}, "properties": {"name": "KORIA 110 kV", "voltage_kv": "110", "consumption_mw": 0, "generation_1": 500, "generation_2": 500, "generation_3": 500}}, {"type": "Feature", "geometry": {"type": "Point", "coordinates": [26.595428514366972, 60.83831245663099]}, "properties": {"name": "KORIA 400 kV", "voltage_kv": "400", "consumption_mw": 0, "generation_1": 500, "generation_2": 500, "generation_3": 500}}, {"type": "Feature", "geometry": {"type": "Point", "coordinates": [21.376128816372304, 62.29278299965972]}, "properties": {"name": "KRISTINESTAD 110 kV", "voltage_kv": "110", "consumption_mw": 300, "generation_1": 0, "generation_2": 90, "generation_3": 90}}, {"type": "Feature", "geometry": {"type": "Point", "coordinates": [21.376128816372304, 62.29278299965972]}, "properties": {"name": "KRISTINESTAD 400 kV", "voltage_kv": "400", "consumption_mw": 500, "generation_1": 0, "generation_2": 490, "generation_3": 490}}, {"type": "Feature", "geometry": {"type": "Point", "coordinates": [24.212084885925716, 63.93772037970038]}, "properties": {"name": "KUKONKYLÄ 110 kV", "voltage_kv": "110", "consumption_mw": 0, "generation_1": 0, "generation_2": 800, "generation_3": 800}}, {"type": "Feature", "geometry": {"type": "Point", "coordinates": [24.212084885925716, 63.93772037970038]}, "properties": {"name": "KUKONKYLÄ 400 kV", "voltage_kv": "400", "consumption_mw": 0, "generation_1": 0, "generation_2": 1000, "generation_3": 1000}}, {"type": "Feature", "geometry": {"type": "Point", "coordinates": [25.73247853031315, 67.62152375389684]}, "properties": {"name": "KUOLAJÄRVI 220 kV", "voltage_kv": "220", "consumption_mw": 0, "generation_1": 100, "generation_2": 150, "generation_3": 150}}, {"type": "Feature", "geometry": {"type": "Point", "coordinates": [26.906328245212645, 60.598863230611805]}, "properties": {"name": "KYMI 110 kV", "voltage_kv": "110", "consumption_mw": 0, "generation_1": 450, "generation_2": 450, "generation_3": 450}}, {"type": "Feature", "geometry": {"type": "Point", "coordinates": [26.906328245212645, 60.598863230611805]}, "properties": {"name": "KYMI 400 kV", "voltage_kv": "400", "consumption_mw": 0, "generation_1": 450, "generation_2": 450, "generation_3": 450}}, {"type": "Feature", "geometry": {"type": "Point", "coordinates": [26.90721705631659, 60.49938729277615]}, "properties": {"name": "KYMINLINNA 110 kV", "voltage_kv": "110", "consumption_mw": 0, "generation_1": 200, "generation_2": 200, "generation_3": 200}}, {"type": "Feature", "geometry": {"type": "Point", "coordinates": [21.652004213183414, 62.48214961987303]}, "properties": {"name": "KÄRPPIÖ 110 kV", "voltage_kv": "110", "consumption_mw": 500, "generation_1": 0, "generation_2": 260, "generation_3": 260}}, {"type": "Feature", "geometry": {"type": "Point", "coordinates": [21.652004213183414, 62.48214961987303]}, "properties": {"name": "KÄRPPIÖ 400 kV", "voltage_kv": "400", "consumption_mw": 500, "generation_1": 0, "generation_2": 460, "generation_3": 460}}, {"type": "Feature", "geometry": {"type": "Point", "coordinates": [24.026686401146936, 61.32013501446694]}, "properties": {"name": "LAVIANVUORI 110 kV", "voltage_kv": "110", "consumption_mw": 0, "generation_1": 400, "generation_2": 700, "generation_3": 700}}, {"type": "Feature", "geometry": {"type": "Point", "coordinates": [24.026686401146936, 61.32013501446694]}, "properties": {"name": "LAVIANVUORI 400 kV", "voltage_kv": "400", "consumption_mw": 0, "generation_1": 500, "generation_2": 500, "generation_3": 500}}, {"type": "Feature", "geometry": {"type": "Point", "coordinates": [27.88808697589956, 64.4554020386899]}, "properties": {"name": "LEPPIKOSKI 110 kV", "voltage_kv": "110", "consumption_mw": 100, "generation_1": 0, "generation_2": 100, "generation_3": 100}}, {"type": "Feature", "geometry": {"type": "Point", "coordinates": [25.564526357309884, 65.04412210563078]}, "properties": {"name": "LEVÄSUO 110 kV", "voltage_kv": "110", "consumption_mw": 600, "generation_1": 200, "generation_2": 200, "generation_3": 200}}, {"type": "Feature", "geometry": {"type": "Point", "coordinates": [30.108684312136326, 63.32141681310688]}, "properties": {"name": "LIEKSA 110 kV", "voltage_kv": "110", "consumption_mw": 20, "generation_1": 90, "generation_2": 90, "generation_3": 90}}, {"type": "Feature", "geometry": {"type": "Point", "coordinates": [22.49957251950859, 60.52350928779306]}, "properties": {"name": "LIETO 110 kV", "voltage_kv": "110", "consumption_mw": 0, "generation_1": 470, "generation_2": 470, "generation_3": 470}}, {"type": "Feature", "geometry": {"type": "Point", "coordinates": [22.49957251950859, 60.52350928779306]}, "properties": {"name": "LIETO 400 kV", "voltage_kv": "400", "consumption_mw": 0, "generation_1": 470, "generation_2": 470, "generation_3": 470}}, {"type": "Feature", "geometry": {"type": "Point", "coordinates": [28.261585364627962, 61.05787439611853]}, "properties": {"name": "LUUKKALA 110 kV", "voltage_kv": "110", "consumption_mw": 100, "generation_1": 100, "generation_2": 100, "generation_3": 100}}, {"type": "Feature", "geometry": {"type": "Point", "coordinates": [25.119746982411705, 60.260224170152966]}, "properties": {"name": "LÄNSISALMI 400 kV", "voltage_kv": "400", "consumption_mw": 0, "generation_1": 500, "generation_2": 500, "generation_3": 500}}, {"type": "Feature", "geometry": {"type": "Point", "coordinates": [23.43406889828773, 61.463891874765075]}, "properties": {"name": "MELO 110 kV", "voltage_kv": "110", "consumption_mw": 0, "generation_1": 60, "generation_2": 160, "generation_3": 160}}, {"type": "Feature", "geometry": {"type": "Point", "coordinates": [25.366444007361633, 66.90611480534926]}, "properties": {"name": "MELTAUS 110 kV", "voltage_kv": "110", "consumption_mw": 30, "generation_1": 50, "generation_2": 50, "generation_3": 50}}, {"type": "Feature", "geometry": {"type": "Point", "coordinates": [23.185150825621818, 60.94881761187813]}, "properties": {"name": "METSÄMAA 110 kV", "voltage_kv": "110", "consumption_mw": 0, "generation_1": 40, "generation_2": 40, "generation_3": 40}}, {"type": "Feature", "geometry": {"type": "Point", "coordinates": [24.695202352160276, 62.01316334523463]}, "properties": {"name": "MÄNTTÄ 110 kV", "voltage_kv": "110", "consumption_mw": 0, "generation_1": 50, "generation_2": 50, "generation_3": 50}}, {"type": "Feature", "geometry": {"type": "Point", "coordinates": [22.066597469147286, 60.464481867597165]}, "properties": {"name": "NAANTALINSALMI 110 kV", "voltage_kv": "110", "consumption_mw": 0, "generation_1": 100, "generation_2": 100, "generation_3": 100}}, {"type": "Feature", "geometry": {"type": "Point", "coordinates": [26.702732933845514, 64.57993152084747]}, "properties": {"name": "NUOJUANKANGAS 110 kV", "voltage_kv": "110", "consumption_mw": 200, "generation_1": 0, "generation_2": 50, "generation_3": 50}}, {"type": "Feature", "geometry": {"type": "Point", "coordinates": [26.702732933845514, 64.57993152084747]}, "properties": {"name": "NUOJUANKANGAS 400 kV", "voltage_kv": "400", "consumption_mw": 500, "generation_1": 0, "generation_2": 500, "generation_3": 500}}, {"type": "Feature", "geometry": {"type": "Point", "coordinates": [24.94449100211935, 60.493867979366335]}, "properties": {"name": "NURMIJÄRVI 110 kV", "voltage_kv": "110", "consumption_mw": 0, "generation_1": 500, "generation_2": 500, "generation_3": 500}}, {"type": "Feature", "geometry": {"type": "Point", "coordinates": [24.94449100211935, 60.493867979366335]}, "properties": {"name": "NURMIJÄRVI 400 kV", "voltage_kv": "400", "consumption_mw": 0, "generation_1": 500, "generation_2": 500, "generation_3": 500}}, {"type": "Feature", "geometry": {"type": "Point", "coordinates": [28.967571972648205, 64.09909881237756]}, "properties": {"name": "ONTOJOKI 110 kV", "voltage_kv": "110", "consumption_mw": 50, "generation_1": 20, "generation_2": 100, "generation_3": 100}}, {"type": "Feature", "geometry": {"type": "Point", "coordinates": [25.682351333996795, 60.88053543801136]}, "properties": {"name": "ORIMATTILA 110 kV", "voltage_kv": "110", "consumption_mw": 0, "generation_1": 600, "generation_2": 600, "generation_3": 600}}, {"type": "Feature", "geometry": {"type": "Point", "coordinates": [30.422047581855328, 62.79769295098396]}, "properties": {"name": "PALOJÄRVI 110 kV", "voltage_kv": "110", "consumption_mw": 100, "generation_1": 150, "generation_2": 150, "generation_3": 150}}, {"type": "Feature", "geometry": {"type": "Point", "coordinates": [26.80848533800844, 60.57928241566441]}, "properties": {"name": "PERNOONKOSKI 110 kV", "voltage_kv": "110", "consumption_mw": 0, "generation_1": 300, "generation_2": 300, "generation_3": 300}}, {"type": "Feature", "geometry": {"type": "Point", "coordinates": [25.334669870136988, 66.26888091119501]}, "properties": {"name": "PETÄJÄSKOSKI 220 kV", "voltage_kv": "220", "consumption_mw": 300, "generation_1": 100, "generation_2": 300, "generation_3": 300}}, {"type": "Feature", "geometry": {"type": "Point", "coordinates": [25.334669870136988, 66.26888091119501]}, "properties": {"name": "PETÄJÄSKOSKI 400 kV", "voltage_kv": "400", "consumption_mw": 500, "generation_1": 750, "generation_2": 1480, "generation_3": 1480}}, {"type": "Feature", "geometry": {"type": "Point", "coordinates": [25.143866258679925, 62.279359351664354]}, "properties": {"name": "PETÄJÄVESI 110 kV", "voltage_kv": "110", "consumption_mw": 400, "generation_1": 330, "generation_2": 330, "generation_3": 330}}, {"type": "Feature", "geometry": {"type": "Point", "coordinates": [25.143866258679925, 62.279359351664354]}, "properties": {"name": "PETÄJÄVESI 400 kV", "voltage_kv": "400", "consumption_mw": 500, "generation_1": 330, "generation_2": 330, "generation_3": 330}}, {"type": "Feature", "geometry": {"type": "Point", "coordinates": [25.737030547625466, 64.91705976357974]}, "properties": {"name": "PIKKARALA 110 kV", "voltage_kv": "110", "consumption_mw": 300, "generation_1": 380, "generation_2": 380, "generation_3": 380}}, {"type": "Feature", "geometry": {"type": "Point", "coordinates": [27.14273572348205, 66.33952304965703]}, "properties": {"name": "PIRTTIKOSKI 220 kV", "voltage_kv": "220", "consumption_mw": 300, "generation_1": 0, "generation_2": 250, "generation_3": 250}}, {"type": "Feature", "geometry": {"type": "Point", "coordinates": [27.14273572348205, 66.33952304965703]}, "properties": {"name": "PIRTTIKOSKI 400 kV", "voltage_kv": "400", "consumption_mw": 500, "generation_1": 620, "generation_2": 700, "generation_3": 700}}, {"type": "Feature", "geometry": {"type": "Point", "coordinates": [25.63858981376451, 60.40333692014988]}, "properties": {"name": "PORVOO 110 kV", "voltage_kv": "110", "consumption_mw": 0, "generation_1": 200, "generation_2": 200, "generation_3": 200}}, {"type": "Feature", "geometry": {"type": "Point", "coordinates": [26.034862370574388, 64.84512377781166]}, "properties": {"name": "PYHÄKOSKI 110 kV", "voltage_kv": "110", "consumption_mw": 0, "generation_1": 0, "generation_2": 0, "generation_3": 0}}, {"type": "Feature", "geometry": {"type": "Point", "coordinates": [26.07264310685955, 64.84393988506592]}, "properties": {"name": "PYHÄNSELKÄ 110 kV", "voltage_kv": "110", "consumption_mw": 300, "generation_1": 40, "generation_2": 80, "generation_3": 80}}, {"type": "Feature", "geometry": {"type": "Point", "coordinates": [26.07264310685955, 64.84393988506592]}, "properties": {"name": "PYHÄNSELKÄ 400 kV", "voltage_kv": "400", "consumption_mw": 500, "generation_1": 0, "generation_2": 1000, "generation_3": 1000}}, {"type": "Feature", "geometry": {"type": "Point", "coordinates": [26.813454441386423, 61.404360126135174]}, "properties": {"name": "PYHÄVESI 110 kV", "voltage_kv": "110", "consumption_mw": 50, "generation_1": 50, "generation_2": 50, "generation_3": 50}}, {"type": "Feature", "geometry": {"type": "Point", "coordinates": [25.295428471714423, 63.806571892873045]}, "properties": {"name": "PYSÄYSPERÄ 110 kV", "voltage_kv": "110", "consumption_mw": 0, "generation_1": 0, "generation_2": 0, "generation_3": 0}}, {"type": "Feature", "geometry": {"type": "Point", "coordinates": [25.295428471714423, 63.806571892873045]}, "properties": {"name": "PYSÄYSPERÄ 400 kV", "voltage_kv": "400", "consumption_mw": 0, "generation_1": 240, "generation_2": 240, "generation_3": 240}}, {"type": "Feature", "geometry": {"type": "Point", "coordinates": [24.451741948663337, 64.65898578069368]}, "properties": {"name": "RAAHE 110 kV", "voltage_kv": "110", "consumption_mw": 0, "generation_1": 0, "generation_2": 0, "generation_3": 0}}, {"type": "Feature", "geometry": {"type": "Point", "coordinates": [21.623791928259376, 61.15284319467532]}, "properties": {"name": "RAUMA 110 kV", "voltage_kv": "110", "consumption_mw": 500, "generation_1": 480, "generation_2": 480, "generation_3": 480}}, {"type": "Feature", "geometry": {"type": "Point", "coordinates": [21.623791928259376, 61.15284319467532]}, "properties": {"name": "RAUMA 400 kV", "voltage_kv": "400", "consumption_mw": 500, "generation_1": 480, "generation_2": 480, "generation_3": 480}}, {"type": "Feature", "geometry": {"type": "Point", "coordinates": [24.952801296663452, 60.35903965865186]}, "properties": {"name": "RUOTSINKYLÄ 110 kV", "voltage_kv": "110", "consumption_mw": 0, "generation_1": 500, "generation_2": 500, "generation_3": 500}}, {"type": "Feature", "geometry": {"type": "Point", "coordinates": [21.862062133780075, 61.326602602540625]}, "properties": {"name": "SAARIKKO 110 kV", "voltage_kv": "110", "consumption_mw": 0, "generation_1": 100, "generation_2": 100, "generation_3": 100}}, {"type": "Feature", "geometry": {"type": "Point", "coordinates": [23.091543826904985, 60.341706785023796]}, "properties": {"name": "SALO 110 kV", "voltage_kv": "110", "consumption_mw": 0, "generation_1": 390, "generation_2": 390, "generation_3": 390}}, {"type": "Feature", "geometry": {"type": "Point", "coordinates": [23.091543826904985, 60.341706785023796]}, "properties": {"name": "SALO 400 kV", "voltage_kv": "400", "consumption_mw": 0, "generation_1": 490, "generation_2": 490, "generation_3": 490}}, {"type": "Feature", "geometry": {"type": "Point", "coordinates": [22.526958326341134, 63.408943996902174]}, "properties": {"name": "SANDÅS 110 kV", "voltage_kv": "110", "consumption_mw": 0, "generation_1": 0, "generation_2": 140, "generation_3": 140}}, {"type": "Feature", "geometry": {"type": "Point", "coordinates": [22.526958326341134, 63.408943996902174]}, "properties": {"name": "SANDÅS 400 kV", "voltage_kv": "400", "consumption_mw": 0, "generation_1": 0, "generation_2": 640, "generation_3": 640}}, {"type": "Feature", "geometry": {"type": "Point", "coordinates": [28.960280057766035, 61.858781066668165]}, "properties": {"name": "SAVONLINNA 110 kV", "voltage_kv": "110", "consumption_mw": 50, "generation_1": 100, "generation_2": 100, "generation_3": 100}}, {"type": "Feature", "geometry": {"type": "Point", "coordinates": [22.713905124450523, 62.785752714580646]}, "properties": {"name": "SEINÄJOKI 110 kV", "voltage_kv": "110", "consumption_mw": 400, "generation_1": 190, "generation_2": 190, "generation_3": 190}}, {"type": "Feature", "geometry": {"type": "Point", "coordinates": [22.713905124450523, 62.785752714580646]}, "properties": {"name": "SEINÄJOKI 400 kV", "voltage_kv": "400", "consumption_mw": 500, "generation_1": 390, "generation_2": 390, "generation_3": 390}}, {"type": "Feature", "geometry": {"type": "Point", "coordinates": [28.41601379595413, 64.59121939853718]}, "properties": {"name": "SEITENOIKEA 110 kV", "voltage_kv": "110", "consumption_mw": 100, "generation_1": 0, "generation_2": 220, "generation_3": 220}}, {"type": "Feature", "geometry": {"type": "Point", "coordinates": [28.41601379595413, 64.59121939853718]}, "properties": {"name": "SEITENOIKEA 220 kV", "voltage_kv": "220", "consumption_mw": 100, "generation_1": 0, "generation_2": 0, "generation_3": 0}}, {"type": "Feature", "geometry": {"type": "Point", "coordinates": [25.063675593015915, 64.67979619126741]}, "properties": {"name": "SIIKAJOKI 110 kV", "voltage_kv": "110", "consumption_mw": 300, "generation_1": 0, "generation_2": 0, "generation_3": 0}}, {"type": "Feature", "geometry": {"type": "Point", "coordinates": [25.094822638681386, 65.71504252014245]}, "properties": {"name": "SIMOJOKI 110 kV", "voltage_kv": "110", "consumption_mw": 200, "generation_1": 30, "generation_2": 30, "generation_3": 30}}, {"type": "Feature", "geometry": {"type": "Point", "coordinates": [25.094822638681386, 65.71504252014245]}, "properties": {"name": "SIMOJOKI 400 kV", "voltage_kv": "400", "consumption_mw": 500, "generation_1": 880, "generation_2": 980, "generation_3": 980}}, {"type": "Feature", "geometry": {"type": "Point", "coordinates": [27.671675984015504, 62.959426440227475]}, "properties": {"name": "SORSASALO 110 kV", "voltage_kv": "110", "consumption_mw": 50, "generation_1": 0, "generation_2": 100, "generation_3": 100}}, {"type": "Feature", "geometry": {"type": "Point", "coordinates": [28.96333279365732, 63.47093295487194]}, "properties": {"name": "SÄRKIVAARA 110 kV", "voltage_kv": "110", "consumption_mw": 50, "generation_1": 90, "generation_2": 90, "generation_3": 90}}, {"type": "Feature", "geometry": {"type": "Point", "coordinates": [28.783785098876972, 61.21048300101752]}, "properties": {"name": "TAINIONKOSKI 110 kV", "voltage_kv": "110", "consumption_mw": 100, "generation_1": 100, "generation_2": 100, "generation_3": 100}}, {"type": "Feature", "geometry": {"type": "Point", "coordinates": [24.71423190612977, 65.9279343330674]}, "properties": {"name": "TAIVALKOSKI 110 kV", "voltage_kv": "110", "consumption_mw": 100, "generation_1": 100, "generation_2": 100, "generation_3": 100}}, {"type": "Feature", "geometry": {"type": "Point", "coordinates": [24.71423190612977, 65.9279343330674]}, "properties": {"name": "TAIVALKOSKI 220 kV", "voltage_kv": "220", "consumption_mw": 0, "generation_1": 0, "generation_2": 0, "generation_3": 0}}, {"type": "Feature", "geometry": {"type": "Point", "coordinates": [24.97220521069629, 60.28854410068707]}, "properties": {"name": "TAMMISTO 110 kV", "voltage_kv": "110", "consumption_mw": 0, "generation_1": 500, "generation_2": 500, "generation_3": 500}}, {"type": "Feature", "geometry": {"type": "Point", "coordinates": [24.97220521069629, 60.28854410068707]}, "properties": {"name": "TAMMISTO 400 kV", "voltage_kv": "400", "consumption_mw": 0, "generation_1": 500, "generation_2": 500, "generation_3": 500}}, {"type": "Feature", "geometry": {"type": "Point", "coordinates": [26.8293462415785, 60.6988910527383]}, "properties": {"name": "TEHTAANMÄKI 110 kV", "voltage_kv": "110", "consumption_mw": 0, "generation_1": 100, "generation_2": 100, "generation_3": 100}}, {"type": "Feature", "geometry": {"type": "Point", "coordinates": [27.672977091280444, 64.2350925437398]}, "properties": {"name": "TIHISENNIEMI 110 kV", "voltage_kv": "110", "consumption_mw": 100, "generation_1": 0, "generation_2": 200, "generation_3": 200}}, {"type": "Feature", "geometry": {"type": "Point", "coordinates": [25.12404623890334, 61.918181345286754]}, "properties": {"name": "TOIVILA 110 kV", "voltage_kv": "110", "consumption_mw": 300, "generation_1": 400, "generation_2": 400, "generation_3": 400}}, {"type": "Feature", "geometry": {"type": "Point", "coordinates": [25.12404623890334, 61.918181345286754]}, "properties": {"name": "TOIVILA 400 kV", "voltage_kv": "400", "consumption_mw": 500, "generation_1": 400, "generation_2": 400, "generation_3": 400}}, {"type": "Feature", "geometry": {"type": "Point", "coordinates": [21.85168060148594, 63.05268486594952]}, "properties": {"name": "TUOVILA 110 kV", "voltage_kv": "110", "consumption_mw": 300, "generation_1": 0, "generation_2": 240, "generation_3": 240}}, {"type": "Feature", "geometry": {"type": "Point", "coordinates": [21.85168060148594, 63.05268486594952]}, "properties": {"name": "TUOVILA 400 kV", "voltage_kv": "400", "consumption_mw": 500, "generation_1": 0, "generation_2": 640, "generation_3": 640}}, {"type": "Feature", "geometry": {"type": "Point", "coordinates": [30.227881710263688, 62.92450790309199]}, "properties": {"name": "UIMAHARJU 110 kV", "voltage_kv": "110", "consumption_mw": 100, "generation_1": 150, "generation_2": 150, "generation_3": 150}}, {"type": "Feature", "geometry": {"type": "Point", "coordinates": [24.13341820813088, 63.72139042299645]}, "properties": {"name": "ULLAVA 400 kV", "voltage_kv": "400", "consumption_mw": 0, "generation_1": 0, "generation_2": 1000, "generation_3": 1000}}, {"type": "Feature", "geometry": {"type": "Point", "coordinates": [21.982078007856224, 61.47859083885725]}, "properties": {"name": "ULVILA 110 kV", "voltage_kv": "110", "consumption_mw": 200, "generation_1": 390, "generation_2": 390, "generation_3": 390}}, {"type": "Feature", "geometry": {"type": "Point", "coordinates": [21.982078007856224, 61.47859083885725]}, "properties": {"name": "ULVILA 400 kV", "voltage_kv": "400", "consumption_mw": 500, "generation_1": 390, "generation_2": 390, "generation_3": 390}}, {"type": "Feature", "geometry": {"type": "Point", "coordinates": [26.476074519027623, 64.73725180604781]}, "properties": {"name": "UTANEN 110 kV", "voltage_kv": "110", "consumption_mw": 200, "generation_1": 0, "generation_2": 0, "generation_3": 0}}, {"type": "Feature", "geometry": {"type": "Point", "coordinates": [27.088670405347735, 69.90637317119761]}, "properties": {"name": "UTSJOKI 220 kV", "voltage_kv": "220", "consumption_mw": 50, "generation_1": 50, "generation_2": 50, "generation_3": 50}}, {"type": "Feature", "geometry": {"type": "Point", "coordinates": [21.579366599209404, 60.81697582641254]}, "properties": {"name": "UUSIKAUPUNKI 110 kV", "voltage_kv": "110", "consumption_mw": 0, "generation_1": 0, "generation_2": 0, "generation_3": 0}}, {"type": "Feature", "geometry": {"type": "Point", "coordinates": [24.875249164191178, 63.97253155352939]}, "properties": {"name": "UUSNIVALA 110 kV", "voltage_kv": "110", "consumption_mw": 400, "generation_1": 140, "generation_2": 140, "generation_3": 140}}, {"type": "Feature", "geometry": {"type": "Point", "coordinates": [24.875249164191178, 63.97253155352939]}, "properties": {"name": "UUSNIVALA 400 kV", "voltage_kv": "400", "consumption_mw": 400, "generation_1": 390, "generation_2": 390, "generation_3": 390}}, {"type": "Feature", "geometry": {"type": "Point", "coordinates": [26.808380903625263, 67.69508571483314]}, "properties": {"name": "VAJUKOSKI 110 kV", "voltage_kv": "110", "consumption_mw": 100, "generation_1": 150, "generation_2": 220, "generation_3": 220}}, {"type": "Feature", "geometry": {"type": "Point", "coordinates": [26.808380903625263, 67.69508571483314]}, "properties": {"name": "VAJUKOSKI 220 kV", "voltage_kv": "220", "consumption_mw": 200, "generation_1": 70, "generation_2": 250, "generation_3": 250}}, {"type": "Feature", "geometry": {"type": "Point", "coordinates": [25.540487428123715, 66.42559798729374]}, "properties": {"name": "VALAJASKOSKI 110 kV", "voltage_kv": "110", "consumption_mw": 0, "generation_1": 50, "generation_2": 50, "generation_3": 50}}, {"type": "Feature", "geometry": {"type": "Point", "coordinates": [25.540487428123715, 66.42559798729374]}, "properties": {"name": "VALAJASKOSKI 220 kV", "voltage_kv": "220", "consumption_mw": 300, "generation_1": 150, "generation_2": 150, "generation_3": 150}}, {"type": "Feature", "geometry": {"type": "Point", "coordinates": [24.562145199205574, 64.42283276034716]}, "properties": {"name": "VALKEUS 110 kV", "voltage_kv": "110", "consumption_mw": 500, "generation_1": 0, "generation_2": 550, "generation_3": 550}}, {"type": "Feature", "geometry": {"type": "Point", "coordinates": [24.562145199205574, 64.42283276034716]}, "properties": {"name": "VALKEUS 400 kV", "voltage_kv": "400", "consumption_mw": 500, "generation_1": 0, "generation_2": 850, "generation_3": 850}}, {"type": "Feature", "geometry": {"type": "Point", "coordinates": [24.509455876357777, 60.975797027836805]}, "properties": {"name": "VANAJA 110 kV", "voltage_kv": "110", "consumption_mw": 0, "generation_1": 300, "generation_2": 300, "generation_3": 300}}, {"type": "Feature", "geometry": {"type": "Point", "coordinates": [24.983596828972008, 60.22038706140876]}, "properties": {"name": "VANHAKAUPUNKI 400 kV", "voltage_kv": "400", "consumption_mw": 0, "generation_1": 0, "generation_2": 500, "generation_3": 500}}, {"type": "Feature", "geometry": {"type": "Point", "coordinates": [27.85503690252518, 62.339606437181196]}, "properties": {"name": "VARKAUS 110 kV", "voltage_kv": "110", "consumption_mw": 100, "generation_1": 150, "generation_2": 150, "generation_3": 150}}, {"type": "Feature", "geometry": {"type": "Point", "coordinates": [25.84760726659079, 62.35898720992572]}, "properties": {"name": "VIHTAVUORI 110 kV", "voltage_kv": "110", "consumption_mw": 100, "generation_1": 400, "generation_2": 400, "generation_3": 400}}, {"type": "Feature", "geometry": {"type": "Point", "coordinates": [25.84760726659079, 62.35898720992572]}, "properties": {"name": "VIHTAVUORI 400 kV", "voltage_kv": "400", "consumption_mw": 0, "generation_1": 400, "generation_2": 400, "generation_3": 400}}, {"type": "Feature", "geometry": {"type": "Point", "coordinates": [24.501354389770075, 65.92002032527596]}, "properties": {"name": "VIITAJÄRVI 400 kV", "voltage_kv": "400", "consumption_mw": 0, "generation_1": 1080, "generation_2": 1300, "generation_3": 1300}}, {"type": "Feature", "geometry": {"type": "Point", "coordinates": [23.995851719108817, 60.1798921828428]}, "properties": {"name": "VIRKKALA 110 kV", "voltage_kv": "110", "consumption_mw": 0, "generation_1": 390, "generation_2": 390, "generation_3": 390}}, {"type": "Feature", "geometry": {"type": "Point", "coordinates": [27.36607433481509, 61.72897498929323]}, "properties": {"name": "VISULAHTI 110 kV", "voltage_kv": "110", "consumption_mw": 200, "generation_1": 250, "generation_2": 250, "generation_3": 250}}, {"type": "Feature", "geometry": {"type": "Point", "coordinates": [27.36607433481509, 61.72897498929323]}, "properties": {"name": "VISULAHTI 400 kV", "voltage_kv": "400", "consumption_mw": 300, "generation_1": 250, "generation_2": 250, "generation_3": 250}}, {"type": "Feature", "geometry": {"type": "Point", "coordinates": [28.671027032535314, 61.14498373417794]}, "properties": {"name": "VUOKSI 110 kV", "voltage_kv": "110", "consumption_mw": 250, "generation_1": 250, "generation_2": 250, "generation_3": 250}}, {"type": "Feature", "geometry": {"type": "Point", "coordinates": [27.212210074328034, 64.10545225141885]}, "properties": {"name": "VUOLIJOKI 110 kV", "voltage_kv": "110", "consumption_mw": 300, "generation_1": 30, "generation_2": 300, "generation_3": 300}}, {"type": "Feature", "geometry": {"type": "Point", "coordinates": [27.212210074328034, 64.10545225141885]}, "properties": {"name": "VUOLIJOKI 400 kV", "voltage_kv": "400", "consumption_mw": 500, "generation_1": 0, "generation_2": 500, "generation_3": 500}}, {"type": "Feature", "geometry": {"type": "Point", "coordinates": [25.08450097551847, 60.49898256375704]}, "properties": {"name": "VÄHÄNUMMI 110 kV", "voltage_kv": "110", "consumption_mw": 0, "generation_1": 300, "generation_2": 300, "generation_3": 300}}, {"type": "Feature", "geometry": {"type": "Point", "coordinates": [28.03028749511111, 61.018801730479026]}, "properties": {"name": "YLLIKKÄLÄ 110 kV", "voltage_kv": "110", "consumption_mw": 150, "generation_1": 460, "generation_2": 460, "generation_3": 460}}, {"type": "Feature", "geometry": {"type": "Point", "coordinates": [28.03028749511111, 61.018801730479026]}, "properties": {"name": "YLLIKKÄLÄ 400 kV", "voltage_kv": "400", "consumption_mw": 300, "generation_1": 460, "generation_2": 460, "generation_3": 460}}, {"type": "Feature", "geometry": {"type": "Point", "coordinates": [24.543337378699913, 65.79277228642248]}, "properties": {"name": "ISOHAARA 110 kV", "voltage_kv": "110", "consumption_mw": 200, "generation_1": 0, "generation_2": 0, "generation_3": 0}}, {"type": "Feature", "geometry": {"type": "Point", "coordinates": [25.121571274668057, 66.1550503238368]}, "properties": {"name": "OSSAUSKOSKI 220 kV", "voltage_kv": "220", "consumption_mw": 100, "generation_1": 0, "generation_2": 0, "generation_3": 0}}, {"type": "Feature", "geometry": {"type": "Point", "coordinates": [26.07264310685955, 64.84393988506592]}, "properties": {"name": "PYHÄNSELKÄ 220 kV", "voltage_kv": "220", "consumption_mw": 0, "generation_1": 0, "generation_2": 0, "generation_3": 0}}, {"type": "Feature", "geometry": {"type": "Point", "coordinates": [26.034862370574388, 64.84512377781166]}, "properties": {"name": "PYHÄKOSKI 220 kV", "voltage_kv": "220", "consumption_mw": 0, "generation_1": 0, "generation_2": 0, "generation_3": 0}}, {"type": "Feature", "geometry": {"type": "Point", "coordinates": [25.737030547625466, 64.91705976357974]}, "properties": {"name": "PIKKARALA 400 kV", "voltage_kv": "400", "consumption_mw": 500, "generation_1": 0, "generation_2": 0, "generation_3": 0}}]}